City,lat,long
Paris,48.856614,2.35
London,51.5481691,-0.1807304
Madrid,40.4167754,-3.7037902
Moscow,55.751244,37.618423
Berlin,52.523753,13.4176863
Roma,41.9027835,12.4963655
Brussels,50.8521937,4.3541381
Sofia,42.6964973,23.3198764
Lisbon,38.736946,-9.142685
Bern,46.9167,7.4667
Amsterdam,52.36307610,4.879286
Stockholm,59.33,18.0649
Zagreb,45.770453,15.94013
Prague,50.0722733,14.4307731
Athens,37.9657316,23.7391192
